City_ID,City,Country,Lat,Lng,Max Temp,Humidity,Cloudiness,Wind Speed,Current Description
0,Khor,RU,47.8861,134.9464,15.51,95,56,7.0,broken clouds
1,Port Alfred,ZA,-33.5906,26.891,73.72,85,0,13.31,clear sky
2,Puerto Escondido,MX,15.85,-97.0667,87.93,48,66,11.7,broken clouds
3,Malmesbury,ZA,-33.4608,18.7271,71.78,52,10,6.69,clear sky
4,Rikitea,PF,-23.1203,-134.9692,79.41,71,30,15.28,light rain
5,Grimshaw,CA,56.1834,-117.6027,33.42,75,40,5.75,scattered clouds
6,Bloomfield,US,40.8068,-74.1854,57.97,20,0,18.41,clear sky
7,Udachnyy,RU,66.4167,112.4,-7.53,100,89,1.79,overcast clouds
8,Pevek,RU,69.7008,170.3133,23.77,78,100,21.74,overcast clouds
9,Businga,CD,3.3333,20.8833,77.34,75,98,5.08,overcast clouds
10,Lebu,CL,-37.6167,-73.65,60.51,64,4,14.9,clear sky
11,Bredasdorp,ZA,-34.5322,20.0403,68.95,85,80,11.81,broken clouds
12,Katsuura,JP,35.1333,140.3,42.31,72,38,21.74,scattered clouds
13,Hobart,AU,-42.8794,147.3294,55.26,77,100,9.22,overcast clouds
14,Holbaek,DK,55.7167,11.7167,47.12,68,27,1.99,scattered clouds
15,Odweyne,SO,9.4092,45.064,82.76,41,52,7.72,broken clouds
16,Okhotsk,RU,59.3833,143.3,18.88,96,100,5.35,light snow
17,Khatanga,RU,71.9667,102.5,-13.0,98,97,3.38,overcast clouds
18,Nikolskoye,RU,59.7035,30.7861,39.09,88,0,5.48,clear sky
19,Butaritari,KI,3.0707,172.7902,80.65,80,37,15.61,light rain
20,Lorengau,PG,-2.0226,147.2712,81.34,77,91,7.52,overcast clouds
21,Clyde River,CA,70.4692,-68.5914,-10.97,70,20,0.0,few clouds
22,Ushuaia,AR,-54.8,-68.3,51.42,71,75,23.02,broken clouds
23,Ponta Delgada,PT,37.7333,-25.6667,63.32,63,40,14.97,scattered clouds
24,Lata,PT,40.1629,-8.3327,56.8,83,89,5.66,light rain
25,Hilo,US,19.7297,-155.09,73.62,81,40,6.91,scattered clouds
26,Mataura,NZ,-46.1927,168.8643,52.86,98,9,2.21,clear sky
27,Barrow,US,71.2906,-156.7887,-29.18,75,0,12.66,haze
28,Ucluelet,CA,48.9329,-125.5528,50.31,94,100,3.0,overcast clouds
29,Padang,ID,-0.9492,100.3543,77.11,86,48,3.6,light rain
30,Busselton,AU,-33.65,115.3333,54.54,78,3,11.54,clear sky
31,Constitucion,CL,-35.3333,-72.4167,65.23,61,3,14.83,clear sky
32,San Bartolome De Tirajana,ES,27.9248,-15.5733,59.47,66,20,25.32,few clouds
33,Cape Town,ZA,-33.9258,18.4232,73.11,74,0,17.27,clear sky
34,Chokurdakh,RU,70.6333,147.9167,1.29,98,100,1.99,overcast clouds
35,Atuona,PF,-9.8,-139.0333,78.98,79,100,15.86,overcast clouds
36,Yellowknife,CA,62.456,-114.3525,5.41,74,20,10.36,few clouds
37,Ribeira Grande,PT,38.5167,-28.7,63.0,67,20,17.27,few clouds
38,Florianopolis,BR,-27.6146,-48.5012,75.63,84,75,9.22,broken clouds
39,Berdigestyakh,RU,62.0989,126.6992,-6.38,100,94,2.8,overcast clouds
40,Oistins,BB,13.0667,-59.5333,84.29,61,40,19.57,scattered clouds
41,Astara,AZ,38.5,48.6667,32.7,90,100,2.04,light snow
42,Arraial Do Cabo,BR,-22.9661,-42.0278,80.56,57,40,13.8,scattered clouds
43,Albany,US,42.6001,-73.9662,47.35,26,6,5.01,clear sky
44,Geraldton,AU,-28.7667,114.6,61.21,77,0,10.36,clear sky
45,Mehran,IR,33.1222,46.1646,67.23,44,0,8.88,clear sky
46,Lavrentiya,RU,65.5833,-171.0,1.42,88,51,3.2,broken clouds
47,Izhma,RU,65.0083,53.9113,25.16,95,98,8.81,light snow
48,Rosario Oeste,BR,-14.8361,-56.4275,90.18,54,41,6.26,scattered clouds
49,Richards Bay,ZA,-28.783,32.0377,71.91,79,16,6.96,few clouds
50,East London,ZA,-33.0153,27.9116,74.34,83,0,10.36,clear sky
51,Coihaique,CL,-45.5752,-72.0662,61.41,51,75,6.91,broken clouds
52,Inhambane,MZ,-23.865,35.3833,76.98,83,75,4.61,broken clouds
53,Tiznit,MA,29.5833,-9.5,57.87,77,96,9.31,overcast clouds
54,Chara,RU,56.9064,118.2631,8.8,77,99,1.74,overcast clouds
55,Karratha,AU,-20.7377,116.8463,87.35,51,100,17.25,light rain
56,Saskylakh,RU,71.9167,114.0833,-5.87,98,100,3.87,overcast clouds
57,Port Elizabeth,ZA,-33.918,25.5701,71.31,93,0,2.3,clear sky
58,Bluff,NZ,-46.6,168.3333,57.13,89,6,6.29,clear sky
59,Lagoa,PT,39.05,-27.9833,58.84,79,75,17.4,broken clouds
60,Diamantino,BR,-14.4086,-56.4461,86.76,62,51,4.74,broken clouds
61,Mahibadhoo,MV,3.7833,72.9667,82.8,68,7,12.39,clear sky
62,Tessalit,ML,20.1986,1.0114,83.88,6,0,9.64,clear sky
63,Castro,BR,-24.7911,-50.0119,73.96,57,50,6.17,scattered clouds
64,Bambous Virieux,MU,-20.3428,57.7575,82.22,94,40,8.05,light rain
65,Jamestown,US,42.097,-79.2353,47.01,29,20,8.05,few clouds
66,Saint George,US,37.1041,-113.5841,61.79,27,0,12.66,clear sky
67,Codrington,AU,-38.2667,141.9667,56.84,65,65,11.74,broken clouds
68,Gorontalo,ID,0.5412,123.0595,75.25,95,100,3.76,overcast clouds
69,Chiredzi,ZW,-21.05,31.6667,69.46,62,70,3.42,broken clouds
70,Carnarvon,AU,-24.8667,113.6333,77.07,78,97,9.22,overcast clouds
71,Comodoro Rivadavia,AR,-45.8667,-67.5,67.86,30,0,40.29,clear sky
72,Dangriga,BZ,16.9692,-88.2321,81.36,71,30,9.66,scattered clouds
73,Vaini,TO,-21.2,-175.2,78.96,94,100,4.61,overcast clouds
74,Airai,TL,-8.9266,125.4092,60.04,92,100,1.48,overcast clouds
75,Upernavik,GL,72.7868,-56.1549,-7.15,74,100,7.54,overcast clouds
76,Mar Del Plata,AR,-38.0023,-57.5575,73.87,67,40,9.22,scattered clouds
77,Olean,US,42.0776,-78.4297,48.88,42,0,0.0,clear sky
78,Georgetown,MY,5.4112,100.3354,85.95,82,20,5.99,few clouds
79,Mayumba,GA,-3.432,10.6554,79.83,88,100,3.56,overcast clouds
80,Bajil,YE,15.0584,43.2851,85.96,59,46,4.54,scattered clouds
81,Shaunavon,CA,49.6501,-108.4181,42.58,52,39,10.49,scattered clouds
82,Yerofey Pavlovich,RU,53.9667,121.9667,4.19,95,38,4.18,scattered clouds
83,Kimbe,PG,-5.5502,150.1429,75.52,93,100,2.13,light rain
84,Punta Arenas,CL,-53.15,-70.9167,53.71,50,0,29.93,clear sky
85,Kruisfontein,ZA,-34.0033,24.7314,68.88,96,0,6.64,clear sky
86,Rovinj,HR,45.08,13.64,53.42,50,0,5.28,clear sky
87,Kingston,JM,17.997,-76.7936,85.24,56,40,24.16,scattered clouds
88,Touros,BR,-5.1989,-35.4608,85.48,65,44,11.1,scattered clouds
89,Kailua,US,21.4022,-157.7394,74.14,89,100,1.99,overcast clouds
90,Inirida,CO,3.8653,-67.9239,83.95,70,80,3.91,broken clouds
91,Boden,SE,65.8252,21.6886,32.0,93,22,3.33,few clouds
92,Dikson,RU,73.5069,80.5464,8.82,89,100,21.41,overcast clouds
93,Tasiilaq,GL,65.6145,-37.6368,8.92,63,4,2.3,clear sky
94,Portland,US,45.5234,-122.6762,58.28,94,100,3.44,overcast clouds
95,Bengkulu,ID,-3.8004,102.2655,76.24,83,69,4.43,broken clouds
96,Nangka,PH,9.4006,122.8169,78.8,87,77,3.87,broken clouds
97,Port Hardy,CA,50.6996,-127.4199,48.38,87,100,16.11,overcast clouds
98,Along,IN,28.1667,94.7667,65.28,81,48,2.46,scattered clouds
99,Zhigansk,RU,66.7697,123.3711,-6.99,100,94,4.21,overcast clouds
100,Esperance,AU,-33.8667,121.9,58.84,69,97,8.19,overcast clouds
101,Pemangkat,ID,1.1667,108.9667,77.49,77,99,3.02,overcast clouds
102,Tilichiki,RU,60.4667,166.1,19.62,95,99,8.32,overcast clouds
103,Beringovskiy,RU,63.05,179.3167,14.67,97,97,8.93,overcast clouds
104,Laguna,US,38.421,-121.4238,73.49,56,0,11.5,clear sky
105,Broken Hill,AU,-31.95,141.4333,64.11,72,93,19.57,light rain
106,Alice Springs,AU,-23.7,133.8833,69.22,32,15,4.61,few clouds
107,Saldanha,ZA,-33.0117,17.9442,84.25,76,46,7.85,scattered clouds
108,Takoradi,GH,4.8845,-1.7554,83.16,78,97,12.19,overcast clouds
109,Berlevag,NO,70.8578,29.0864,31.95,93,75,20.71,broken clouds
110,Hamilton,US,39.1834,-84.5333,59.23,82,100,8.05,overcast clouds
111,Kuito,AO,-12.3833,16.9333,62.51,91,62,2.42,moderate rain
112,Hermanus,ZA,-34.4187,19.2345,72.81,81,48,17.16,scattered clouds
113,Sao Filipe,CV,14.8961,-24.4956,71.2,72,9,13.15,clear sky
114,Presidente Epitacio,BR,-21.7633,-52.1156,86.0,49,9,11.72,clear sky
115,Ponta Do Sol,PT,32.6667,-17.1,66.06,67,66,12.53,broken clouds
116,Havelock,US,34.8791,-76.9013,69.98,47,75,8.05,broken clouds
117,Chokwe,MZ,-24.5333,32.9833,72.36,72,4,9.04,clear sky
118,Fort Nelson,CA,58.8053,-122.7002,17.19,73,75,8.05,broken clouds
119,Thompson,CA,55.7435,-97.8558,24.96,86,100,5.75,overcast clouds
120,Qaanaaq,GL,77.484,-69.3632,-3.91,96,100,2.93,overcast clouds
121,Beatrice,US,40.2681,-96.747,39.18,93,100,33.38,mist
122,Svetlyy,RU,54.675,20.1347,43.97,51,0,4.16,clear sky
123,New Norfolk,AU,-42.7826,147.0587,54.9,64,67,3.0,broken clouds
124,Inzer,RU,54.2167,57.5556,25.11,93,100,6.38,overcast clouds
125,Havoysund,NO,70.9963,24.6622,32.23,94,100,19.1,light snow
126,Provideniya,RU,64.3833,-173.3,8.08,83,31,1.59,scattered clouds
127,Sulecin,PL,52.4443,15.1168,53.89,38,0,4.29,clear sky
128,Simav,TR,39.0882,28.9777,30.29,74,56,8.41,broken clouds
129,Puerto Ayora,EC,-0.7393,-90.3518,85.96,86,71,7.0,broken clouds
130,Narsaq,GL,60.9167,-46.05,23.22,58,71,1.68,broken clouds
131,Tuktoyaktuk,CA,69.4541,-133.0374,-16.6,76,40,6.91,scattered clouds
132,Raga,SS,8.4596,25.678,86.49,9,97,4.27,overcast clouds
133,Termoli,IT,41.9888,14.9895,46.58,67,0,10.87,clear sky
134,Temirgoyevskaya,RU,45.1141,40.2803,36.9,47,4,17.54,clear sky
135,Severnyy,RU,50.677,36.5532,39.24,56,0,4.47,clear sky
136,Yarada,IN,17.65,83.2667,84.52,84,75,3.44,mist
137,Brunico,IT,46.7958,11.9364,52.95,83,0,3.04,clear sky
138,Concepcion Del Oro,MX,24.6333,-101.4167,63.39,9,3,18.77,clear sky
139,Bethel,US,41.3712,-73.414,55.15,26,0,11.5,clear sky
140,Mount Gambier,AU,-37.8333,140.7667,48.11,93,42,5.75,scattered clouds
141,Praya,CV,14.9215,-23.5087,75.74,57,40,23.02,scattered clouds
142,Kahului,US,20.8947,-156.47,74.84,79,20,10.36,few clouds
143,Saint-Louis,SN,16.3333,-15.0,105.44,8,2,10.16,clear sky
144,Port Lincoln,AU,-34.7333,135.8667,61.77,82,56,15.19,broken clouds
145,Avarua,CK,-21.2078,-159.775,75.25,94,20,3.44,few clouds
146,Margate,GB,51.3813,1.3862,55.69,72,3,1.99,clear sky
147,Egvekinot,RU,66.3167,-179.1667,9.59,98,100,2.51,overcast clouds
148,Kudat,MY,6.8837,116.8477,75.29,94,20,3.44,few clouds
149,Arlit,NE,18.7369,7.3853,85.57,10,0,21.56,clear sky
150,Cidreira,BR,-30.1811,-50.2056,74.86,71,5,23.82,clear sky
151,Vila Franca Do Campo,PT,37.7167,-25.4333,63.01,73,62,14.29,broken clouds
152,Izumo,JP,35.3667,132.7667,37.35,82,100,6.55,overcast clouds
153,Dauriya,RU,49.9333,116.8667,4.89,91,23,2.53,few clouds
154,Canutama,BR,-6.5339,-64.3831,85.39,70,72,3.96,broken clouds
155,Longyearbyen,SJ,78.2186,15.6401,13.84,57,20,12.66,few clouds
156,Floro,NO,61.5996,5.0328,43.97,75,75,11.5,broken clouds
157,Changji,CN,44.0167,87.3167,36.39,75,0,4.47,clear sky
158,Kapaa,US,22.0752,-159.319,73.38,87,100,17.27,moderate rain
159,Samarai,PG,-10.6167,150.6667,81.63,79,78,6.89,broken clouds
160,Norman Wells,CA,65.282,-126.8329,-9.36,77,20,9.22,few clouds
161,Wattegama,LK,6.7989,81.4808,75.67,90,52,2.1,broken clouds
162,Lakes Entrance,AU,-37.8811,147.981,59.16,90,100,11.79,light rain
163,Bandar,ID,2.05,99.75,74.68,91,100,3.04,overcast clouds
164,Yaan,NG,7.3833,8.5667,94.68,27,100,5.39,overcast clouds
165,Khandbari,NP,27.3747,87.2039,72.57,43,80,3.87,broken clouds
166,Kieta,PG,-6.2167,155.6333,78.96,82,99,1.32,overcast clouds
167,Ranong,TH,9.9658,98.6348,78.1,87,91,3.83,overcast clouds
168,Lerwick,GB,60.1545,-1.1494,46.4,89,50,13.51,scattered clouds
169,Santa Isabel,BR,-23.3156,-46.2214,77.76,63,35,5.99,scattered clouds
170,Zhangjiakou,CN,40.81,114.8794,30.7,96,93,0.22,overcast clouds
171,Tangjiazhuang,CN,39.7333,118.45,37.45,62,66,6.29,broken clouds
172,Aswan,EG,24.0934,32.907,67.69,24,5,15.7,clear sky
173,Tura,IN,25.5198,90.2201,76.15,36,15,3.18,few clouds
174,Deputatskiy,RU,69.3,139.9,-4.76,98,100,4.21,overcast clouds
175,Coquimbo,CL,-29.9533,-71.3436,65.93,72,0,11.5,clear sky
176,Itarema,BR,-2.9248,-39.9167,83.44,73,85,11.34,overcast clouds
177,Burns Lake,CA,54.2331,-125.7533,40.42,93,100,8.1,overcast clouds
178,Goundam,ML,16.4145,-3.6708,92.57,8,14,9.75,few clouds
179,Pinsk,BY,52.1229,26.0951,47.3,58,0,4.29,clear sky
180,Balsta,SE,59.5671,17.5278,46.33,68,2,8.21,clear sky
181,San Patricio,US,28.017,-97.5169,78.89,29,5,19.24,clear sky
182,Hunchun,CN,42.8675,130.3581,31.15,74,84,1.07,broken clouds
183,Zhangye,CN,38.9342,100.4517,45.07,31,44,4.47,scattered clouds
184,West Bay,KY,19.3667,-81.4167,82.47,69,75,9.22,broken clouds
185,Ishigaki,JP,24.3448,124.1572,69.93,100,75,12.66,broken clouds
186,Kuusamo,FI,65.9667,29.1833,35.64,75,0,9.22,clear sky
187,Faanui,PF,-16.4833,-151.75,81.01,73,59,10.27,broken clouds
188,Hobyo,SO,5.3505,48.5268,79.38,75,8,11.54,clear sky
189,Mattru,SL,7.6244,-11.8332,86.76,54,85,9.78,overcast clouds
190,Chalchihuites,MX,23.4833,-103.8833,70.09,7,75,21.16,broken clouds
191,Mehamn,NO,71.0357,27.8492,31.91,93,100,19.57,light shower snow
192,Atar,MR,20.5169,-13.0499,93.88,6,0,12.95,clear sky
193,Flin Flon,CA,54.7682,-101.865,33.64,80,100,12.66,overcast clouds
194,Torbay,CA,47.6666,-52.7314,36.27,73,75,31.07,broken clouds
195,Port-Gentil,GA,-0.7193,8.7815,82.36,78,20,11.5,few clouds
196,Abeokuta,NG,7.15,3.35,85.68,66,67,9.31,light rain
197,Sola,VU,-13.8833,167.55,81.23,76,100,9.62,overcast clouds
198,Husavik,IS,66.0449,-17.3389,36.34,99,100,8.55,overcast clouds
199,Impfondo,CG,1.6381,18.0667,75.67,80,99,3.36,overcast clouds
200,Lasa,IT,46.6166,10.7002,49.08,73,1,2.01,clear sky
201,Arbazh,RU,57.6804,48.3065,31.57,90,78,8.21,broken clouds
202,Caravelas,BR,-17.7125,-39.2481,78.22,86,23,8.66,few clouds
203,Sakakah,SA,29.9697,40.2064,65.77,27,0,7.31,clear sky
204,Ulladulla,AU,-35.35,150.4667,68.9,88,91,9.69,overcast clouds
205,Vardo,NO,70.3705,31.1107,31.98,86,75,17.27,light snow
206,Itaituba,BR,-4.2761,-55.9836,91.56,62,40,4.61,scattered clouds
207,Verkhoyansk,RU,67.5447,133.385,-0.76,99,100,2.3,overcast clouds
208,Praia Da Vitoria,PT,38.7333,-27.0667,62.85,77,20,14.74,few clouds
209,San Francisco Del Rincon,MX,21.0167,-101.85,81.32,20,26,15.35,scattered clouds
210,Adrar,MR,20.5022,-10.0711,90.91,8,0,6.24,clear sky
211,Balkanabat,TM,39.5108,54.3671,41.76,80,100,6.71,overcast clouds
212,Guerrero Negro,MX,27.9769,-114.0611,68.47,52,0,12.91,clear sky
213,Krasnoselkup,RU,65.7,82.4667,-10.66,100,41,6.22,scattered clouds
214,Inverell,AU,-29.7833,151.1167,60.15,76,12,1.01,few clouds
215,Bay Saint Louis,US,30.3088,-89.33,79.14,83,93,20.65,overcast clouds
216,Micco,US,27.8806,-80.5003,81.1,59,5,4.0,clear sky
217,Kemijarvi,FI,66.7131,27.4306,30.99,94,79,7.63,broken clouds
218,Bereda,ES,43.2686,-7.5406,56.57,92,98,0.96,overcast clouds
219,Sabang,ID,5.8933,95.3214,83.05,73,62,11.23,broken clouds
220,San Jose,US,37.3394,-121.895,76.21,43,20,13.0,few clouds
221,Acapulco,MX,16.8634,-99.8901,84.97,46,37,8.72,scattered clouds
222,Tazovskiy,RU,67.4667,78.7,3.45,89,100,11.68,overcast clouds
223,Vasai,IN,19.47,72.8,87.89,64,9,4.5,clear sky
224,Atambua,ID,-9.1061,124.8925,73.44,90,100,0.98,overcast clouds
225,Tautira,PF,-17.7333,-149.15,80.35,76,35,11.3,light rain
226,Khakhea,BW,-24.6895,23.494,78.87,35,29,4.29,scattered clouds
227,Ixtapa,MX,20.7,-105.2,89.71,12,7,6.78,clear sky
228,Paso De Los Toros,UY,-32.8167,-56.5167,68.02,87,100,14.79,moderate rain
229,Hithadhoo,MV,-0.6,73.0833,83.97,73,6,17.18,clear sky
230,Kodiak,US,57.79,-152.4072,33.31,51,100,16.11,overcast clouds
231,Ayan,RU,56.45,138.1667,11.3,74,100,12.35,overcast clouds
232,Elban,RU,50.1018,136.5094,4.6,93,40,2.66,scattered clouds
233,Puerto Colombia,CO,10.9878,-74.9547,87.89,70,94,19.69,overcast clouds
234,Haines Junction,CA,60.7522,-137.5108,13.95,73,100,11.5,overcast clouds
235,Chudniv,UA,50.052,28.1175,45.68,56,0,4.03,clear sky
236,Nishihara,JP,26.1842,127.7558,65.48,97,100,8.05,overcast clouds
237,Isangel,VU,-19.55,169.2667,77.74,88,100,4.61,light rain
238,Angoche,MZ,-16.2325,39.9086,76.86,89,45,9.64,scattered clouds
239,Arman,RU,59.7,150.1667,12.02,95,100,4.81,overcast clouds
240,Luzhou,CN,28.8724,105.4405,57.81,78,100,3.96,overcast clouds
241,Tual,ID,-5.6667,132.75,82.99,78,100,13.06,light rain
242,Moreira Sales,BR,-24.0622,-53.0069,81.64,57,20,13.06,few clouds
243,Sorland,NO,67.667,12.6934,42.66,88,75,20.58,broken clouds
244,Pandan,PH,14.0453,124.1694,79.68,87,76,8.32,broken clouds
245,Kontagora,NG,10.3999,5.4695,91.6,21,100,2.21,overcast clouds
246,Lodja,CD,-3.4833,23.4333,67.68,99,99,1.79,overcast clouds
247,Fare,PF,-16.7,-151.0167,80.74,75,57,11.5,broken clouds
248,Vincennes,FR,48.85,2.4333,62.87,39,0,11.5,clear sky
249,Khatima,IN,28.9167,79.9667,74.21,17,0,3.76,clear sky
250,Grand Gaube,MU,-20.0064,57.6608,82.38,83,74,3.0,broken clouds
251,Salalah,OM,17.0151,54.0924,74.88,56,1,1.3,clear sky
252,Tiksi,RU,71.6872,128.8694,-15.77,98,91,3.8,overcast clouds
253,Groa,NO,62.65,8.7167,30.81,92,87,5.41,overcast clouds
254,Bambanglipuro,ID,-7.95,110.2833,77.11,89,100,3.33,overcast clouds
255,Aykhal,RU,66.0,111.5,-0.67,100,100,2.33,overcast clouds
256,Bodaybo,RU,57.8506,114.1933,16.09,97,100,3.15,overcast clouds
257,Djambala,CG,-2.5447,14.7533,70.0,82,100,4.16,overcast clouds
258,Leningradskiy,RU,69.3833,178.4167,21.69,85,100,4.47,overcast clouds
259,Coulommiers,FR,48.8145,3.085,62.11,56,1,5.91,clear sky
260,Severo-Yeniseyskiy,RU,60.3725,93.0408,14.23,97,100,3.09,light snow
261,Olinda,BR,-8.0089,-34.8553,82.13,83,75,5.75,broken clouds
262,Lazaro Cardenas,MX,17.9583,-102.2,83.77,47,51,8.1,broken clouds
263,Rumlang,CH,47.4504,8.5299,58.77,24,0,5.75,clear sky
264,Kavaratti,IN,10.5669,72.642,81.88,68,22,9.37,few clouds
265,Glodeni,MD,47.7708,27.5144,49.71,48,0,6.55,clear sky
266,Tsumeb,NA,-19.2333,17.7167,71.91,65,90,3.89,overcast clouds
267,Korla,CN,41.7597,86.1469,46.09,61,43,4.79,scattered clouds
268,Akureyri,IS,65.6835,-18.0878,35.53,87,75,8.05,broken clouds
269,Cayenne,GF,4.9333,-52.3333,75.24,1,75,9.22,moderate rain
270,Polyanka,UA,50.2584,27.6881,45.91,56,0,2.64,clear sky
271,Kaitangata,NZ,-46.2817,169.8464,53.71,95,15,3.2,few clouds
272,Nome,US,64.5011,-165.4064,-0.33,71,0,0.0,clear sky
273,Anito,PH,12.4497,125.2886,78.21,91,79,7.11,broken clouds
274,Phan Thiet,VN,10.9333,108.1,77.5,87,81,4.03,broken clouds
275,Tyup,KG,42.7276,78.3648,34.29,73,100,3.42,overcast clouds
276,Machiques,VE,10.0644,-72.545,94.51,37,65,9.53,broken clouds
277,Hasaki,JP,35.7333,140.8333,30.6,59,48,25.28,scattered clouds
278,Saint-Philippe,RE,-21.3585,55.7679,80.19,90,76,9.93,light rain
279,Mackenzie,CA,55.2999,-123.1698,37.62,93,100,12.66,overcast clouds
280,Severo-Kurilsk,RU,50.6789,156.125,26.15,71,88,14.54,light snow
281,Aravete,EE,59.1403,25.7485,30.99,92,0,4.94,clear sky
282,Ancud,CL,-41.8697,-73.8203,55.22,86,100,16.67,light rain
283,Ha Tinh,VN,18.3333,105.9,77.47,84,25,2.75,scattered clouds
284,Sukhaya Buyvola,RU,45.1533,42.9956,32.83,50,0,11.54,clear sky
285,Verkhnevilyuysk,RU,63.4453,120.3167,7.14,99,95,3.15,overcast clouds
286,Fairbanks,US,64.8378,-147.7164,-0.02,74,40,3.44,scattered clouds
287,Kosh-Agach,RU,50.0,88.6667,-1.77,90,89,4.65,overcast clouds
288,Marzuq,YE,14.4,46.4667,72.5,48,12,6.8,few clouds
289,Ginir,ET,7.1333,40.7,67.86,45,80,4.59,broken clouds
290,Jacareacanga,BR,-6.2222,-57.7528,86.27,61,89,3.44,overcast clouds
291,Klaksvik,FO,62.2266,-6.589,47.32,87,91,20.62,overcast clouds
292,Waingapu,ID,-9.6567,120.2641,78.4,86,85,7.31,overcast clouds
293,Vila Velha,BR,-20.3297,-40.2925,78.94,72,100,11.5,overcast clouds
294,Qaqortoq,GL,60.7167,-46.0333,24.85,51,78,0.67,broken clouds
295,Ilulissat,GL,69.2167,-51.1,0.43,94,100,6.46,light snow
296,Bangkal,PH,6.0667,121.0667,77.74,85,83,2.64,broken clouds
297,Igrim,RU,63.1906,64.4162,18.21,93,82,7.23,broken clouds
298,Russell,US,32.3502,-85.1999,76.91,46,0,16.11,clear sky
299,Talkha,EG,31.0539,31.3779,44.89,86,78,5.57,broken clouds
300,Souillac,MU,-20.5167,57.5167,80.98,94,40,8.05,scattered clouds
301,Sigli,ID,5.3848,95.9609,79.99,80,96,3.74,light rain
302,Tashtyp,RU,52.7939,89.8983,24.22,94,100,4.99,overcast clouds
303,Kurya,RU,51.6003,82.2888,28.62,96,100,16.71,snow
304,Vestmannaeyjar,IS,63.4427,-20.2734,47.39,93,75,4.61,mist
305,Halifax,CA,44.6453,-63.5724,36.68,51,75,25.32,broken clouds
306,Te Anau,NZ,-45.4167,167.7167,54.01,89,9,0.78,clear sky
307,Tuatapere,NZ,-46.1333,167.6833,55.08,87,2,2.86,clear sky
308,Port Hedland,AU,-20.3167,118.5667,89.65,51,99,8.05,light rain
309,Mezen,RU,65.8522,44.24,31.42,77,87,15.26,overcast clouds
310,Thurso,GB,58.5927,-3.5259,46.65,76,54,8.7,broken clouds
311,Lebedyn,UA,50.5852,34.4849,34.66,92,5,4.29,clear sky
312,Mecca,SA,21.4267,39.8261,77.54,36,2,5.14,clear sky
313,Catamarca,AR,-28.4696,-65.7852,84.78,47,6,5.01,clear sky
314,Cabo San Lucas,MX,22.8909,-109.9124,83.61,51,0,1.01,clear sky
315,Anloga,GH,5.7947,0.8973,83.89,79,100,15.41,overcast clouds
316,Boddam,GB,57.4667,-1.7833,54.43,89,33,14.0,scattered clouds
317,Port Blair,IN,11.6667,92.75,78.84,89,40,2.3,mist
318,Mahebourg,MU,-20.4081,57.7,82.26,94,40,8.05,scattered clouds
319,Huarmey,PE,-10.0681,-78.1522,76.28,73,9,12.3,clear sky
320,Derzhavinsk,KZ,51.1,66.3167,13.89,98,81,10.22,broken clouds
321,Bathsheba,BB,13.2167,-59.5167,84.81,61,40,19.57,scattered clouds
322,Broome,US,42.2506,-75.833,49.01,29,0,9.22,clear sky
323,Emba,KZ,48.8264,58.1442,4.69,100,27,3.83,scattered clouds
324,General Roca,AR,-39.0333,-67.5833,79.63,20,47,10.92,scattered clouds
325,Cherskiy,RU,68.75,161.3,12.25,85,40,8.86,scattered clouds
326,Willowmore,ZA,-33.2926,23.4895,74.14,45,4,12.26,clear sky
327,Nampula,MZ,-15.1165,39.2666,76.95,78,0,4.61,clear sky
328,Songjianghe,CN,42.1859,127.479,23.58,84,100,4.21,overcast clouds
329,Tandil,AR,-37.3217,-59.1332,78.89,37,8,8.52,clear sky
330,The Valley,AI,18.217,-63.0578,84.06,65,40,16.11,scattered clouds
331,Port Macquarie,AU,-31.4333,152.9167,59.9,94,72,0.0,broken clouds
332,La Troncal,EC,-2.4,-79.3333,85.14,79,64,4.23,light rain
333,Ruiselede,BE,51.0572,3.3788,62.46,64,1,4.0,clear sky
334,Lipari,IT,38.4674,14.954,54.21,48,0,7.02,clear sky
335,Bagotville,AU,-28.9833,153.4167,63.86,99,3,4.54,clear sky
336,Presidente Medici,BR,-11.1753,-61.9014,84.58,72,79,3.69,broken clouds
337,Grand Baie,MU,-20.0182,57.5802,82.45,83,72,3.0,broken clouds
338,Port Augusta,AU,-32.5,137.7667,64.15,79,17,13.42,few clouds
339,Inuvik,CA,68.3499,-133.7218,-4.94,74,100,6.91,overcast clouds
340,Le Pradet,FR,43.1066,6.0172,54.37,48,0,10.36,clear sky
341,Nanortalik,GL,60.1432,-45.2371,25.74,64,92,4.79,overcast clouds
342,Sturgeon Bay,US,44.8342,-87.377,39.56,60,20,9.22,few clouds
343,Malanje,AO,-9.5402,16.341,65.91,95,71,7.9,moderate rain
344,Marawi,PH,7.9986,124.2928,68.07,96,100,2.19,overcast clouds
345,Emilio Carranza,MX,19.9711,-96.6114,84.49,58,5,8.88,clear sky
346,Pangody,RU,65.85,74.4859,3.04,91,100,11.34,overcast clouds
347,Northam,GB,51.0333,-4.2167,54.66,75,26,13.35,scattered clouds
348,Huadian,CN,42.9633,126.7478,27.91,85,98,1.59,overcast clouds
349,Kavieng,PG,-2.5744,150.7967,81.21,78,100,8.01,light rain
350,Kermanshah,IR,34.3142,47.065,45.5,87,20,2.3,few clouds
351,Luganville,VU,-15.5333,167.1667,78.06,89,99,5.19,overcast clouds
352,Solnechnyy,RU,50.7214,136.6319,17.1,73,1,7.31,clear sky
353,Andros Town,BS,24.7,-77.7667,78.76,64,81,19.73,broken clouds
354,Bonthe,SL,7.5264,-12.505,82.15,67,77,12.71,broken clouds
355,Paracuru,BR,-3.41,-39.0306,79.11,74,45,9.6,scattered clouds
356,Thunder Bay,CA,48.4001,-89.3168,32.29,86,100,14.97,snow
357,Balakirevo,RU,56.5059,38.8432,31.71,95,2,6.55,clear sky
358,Puerto Quijarro,BO,-17.7833,-57.7667,91.17,48,33,5.1,scattered clouds
359,Marshall,US,34.3834,-86.3333,76.08,60,40,14.0,scattered clouds
360,Kloulklubed,PW,7.0419,134.2556,83.08,73,100,17.9,overcast clouds
361,Vao,NC,-22.6667,167.4833,75.87,74,72,9.04,broken clouds
362,Khoy,IR,38.5504,44.9535,30.51,97,98,0.47,overcast clouds
363,Sambava,MG,-14.2667,50.1667,78.33,87,82,11.39,broken clouds
364,Iqaluit,CA,63.7506,-68.5145,-5.31,63,20,16.11,few clouds
365,Ojinaga,MX,29.5667,-104.4167,58.57,40,100,0.0,overcast clouds
366,Klyuchi,RU,52.2667,79.1667,22.73,92,99,11.1,overcast clouds
367,Trancoso,MX,22.7333,-102.3667,68.11,6,27,22.12,scattered clouds
368,Sitka,US,57.0531,-135.33,39.09,81,100,12.66,heavy intensity rain
369,Umm Kaddadah,SD,13.6017,26.6876,83.57,8,100,12.64,overcast clouds
370,Coahuayana,MX,18.7333,-103.6833,89.74,31,61,7.54,broken clouds
371,Victoria,HK,22.2855,114.1577,74.97,93,95,7.0,moderate rain
372,Mareeba,AU,-17.0,145.4333,66.92,98,30,2.01,scattered clouds
373,Matveyevka,RU,52.15,56.1833,8.74,100,67,3.98,broken clouds
374,Ewa Beach,US,21.3156,-158.0072,74.7,80,20,4.61,few clouds
375,Pozo Colorado,PY,-23.4923,-58.7972,92.82,41,40,9.01,scattered clouds
376,San Andres,CO,12.5847,-81.7006,86.02,66,40,16.11,scattered clouds
377,Embonas,GR,36.2269,27.8564,42.93,68,92,5.03,overcast clouds
378,Rocha,UY,-34.4833,-54.3333,70.99,72,100,11.79,moderate rain
379,Mayor Pablo Lagerenza,PY,-19.9309,-60.7718,93.88,37,42,8.34,scattered clouds
380,Sitangkai,PH,4.6628,119.3928,82.26,77,62,7.58,broken clouds
381,Luba,GQ,3.4568,8.5547,84.09,84,100,10.92,overcast clouds
382,Yumen,CN,40.2833,97.2,43.11,46,21,19.73,few clouds
383,Goodyear,US,33.4353,-112.3582,77.32,14,40,9.22,scattered clouds
384,Chuy,UY,-33.6971,-53.4616,72.95,67,100,10.54,heavy intensity rain
385,Prince Rupert,CA,54.3161,-130.3201,44.29,100,100,11.5,moderate rain
386,Ballina,AU,-28.8667,153.5667,64.02,96,2,0.0,clear sky
387,Cururupu,BR,-1.8283,-44.8683,81.72,83,91,3.24,very heavy rain
388,Salihorsk,BY,52.7876,27.5415,46.22,64,0,4.99,clear sky
389,Jiwani,PK,25.05,61.7417,75.72,75,0,9.62,clear sky
390,La Primavera,CO,5.4906,-70.4092,95.38,33,52,8.75,broken clouds
391,Omboue,GA,-1.5746,9.2618,79.79,83,99,8.21,overcast clouds
392,Asau,RO,46.4333,26.4,43.72,60,0,8.21,clear sky
393,Sinnamary,GF,5.3833,-52.95,79.23,87,61,10.85,broken clouds
394,Naze,JP,28.3667,129.4833,59.92,85,100,8.68,overcast clouds
395,Srednekolymsk,RU,67.45,153.6833,8.83,96,100,3.74,overcast clouds
396,Asosa,ET,10.0667,34.5333,76.87,15,62,3.29,broken clouds
397,Gat,IL,31.61,34.7642,54.28,30,13,7.74,few clouds
398,Copiapo,CL,-27.3667,-70.3333,65.89,36,0,9.48,clear sky
399,Cap Malheureux,MU,-19.9842,57.6142,82.47,83,72,3.0,broken clouds
400,Banda Aceh,ID,5.5577,95.3222,80.17,80,83,8.19,light rain
401,Greenwood,US,34.1668,-82.1165,74.07,52,75,12.66,broken clouds
402,Laviana,ES,43.2333,-5.5333,61.74,70,64,4.65,broken clouds
403,Maracaibo,VE,10.6317,-71.6406,88.02,49,52,7.52,broken clouds
404,Itoman,JP,26.1247,127.6694,66.22,96,100,6.91,overcast clouds
405,Kudahuvadhoo,MV,2.6708,72.8944,83.08,67,1,13.82,clear sky
406,Kyren,RU,51.6828,102.1408,10.98,80,35,2.33,scattered clouds
407,Gien,FR,47.6933,2.6309,57.29,59,1,6.76,clear sky
408,Srandakan,ID,-7.9386,110.2506,77.27,89,100,3.42,overcast clouds
409,Pisco,PE,-13.7,-76.2167,75.25,64,0,6.91,clear sky
410,Central Point,US,42.376,-122.9164,58.5,62,25,1.5,scattered clouds
411,Cascais,PT,38.6979,-9.4215,57.02,83,75,17.0,mist
412,Orebro,SE,59.2741,15.2066,42.98,39,0,6.91,clear sky
413,Cabimas,VE,10.3883,-71.4399,84.51,59,54,2.75,broken clouds
414,San Luis,AR,-33.295,-66.3356,79.27,36,23,1.68,few clouds
415,Hambantota,LK,6.1241,81.1185,79.39,82,59,8.61,broken clouds
416,Aviles,ES,43.5547,-5.9248,65.17,67,40,4.61,scattered clouds
417,Huanren,CN,41.2647,125.3667,33.91,64,100,2.95,overcast clouds
418,Ternate,ID,0.8,127.4,76.15,90,100,14.63,moderate rain
419,San Borja,BO,-14.8167,-66.85,89.69,52,43,4.23,scattered clouds
420,Campbell River,CA,50.0163,-125.2446,45.93,100,100,8.05,light intensity drizzle
421,Hirara,JP,24.8,125.2833,70.9,84,100,14.56,overcast clouds
422,Anshun,CN,26.25,105.9333,48.2,82,100,6.96,overcast clouds
423,Fortuna,US,40.5982,-124.1573,50.92,100,0,0.0,clear sky
424,Pedernales,DO,18.0384,-71.744,87.44,39,39,8.48,scattered clouds
425,El Tigre,VE,8.8875,-64.2454,91.2,28,12,8.08,few clouds
426,Puteyets,RU,65.1716,57.091,24.66,86,88,15.99,overcast clouds
427,Rassvet,RU,46.8333,40.75,34.39,69,0,8.95,clear sky
428,Lompoc,US,34.6391,-120.4579,78.85,40,20,3.44,few clouds
429,Sangmelima,CM,2.9333,11.9833,79.92,50,85,2.46,overcast clouds
430,Puerto Princesa,PH,9.7392,118.7353,79.05,83,30,1.03,scattered clouds
431,Maragogi,BR,-9.0122,-35.2225,81.73,76,87,9.37,overcast clouds
432,Esna,EG,25.2934,32.554,64.42,24,2,14.32,clear sky
433,Stepnyak,KZ,52.8339,70.7803,19.2,93,77,12.75,broken clouds
434,Menongue,AO,-14.6585,17.691,65.59,93,68,4.63,broken clouds
435,Vestmanna,FO,62.1564,-7.1664,45.52,93,100,14.97,overcast clouds
436,Maniwaki,CA,46.3834,-75.966,34.18,47,35,12.66,scattered clouds
437,Mukhen,RU,48.1,136.1,23.25,93,79,7.56,broken clouds
438,Nouadhibou,MR,20.931,-17.0347,69.78,64,0,23.02,sand
439,Sisimiut,GL,66.9395,-53.6735,3.31,90,100,6.55,overcast clouds
440,Aleppo,SY,36.25,37.5,44.6,54,45,1.86,scattered clouds
441,Labuhan,ID,-6.8844,112.2051,79.74,85,100,5.57,overcast clouds
442,Torring,DK,55.85,9.4833,50.11,76,16,3.42,few clouds
443,Galesong,ID,-5.3166,119.3661,75.22,83,91,7.02,overcast clouds
444,Shirokiy,RU,49.758,129.523,4.19,99,59,1.07,light snow
445,Winnemucca,US,40.973,-117.7357,49.55,61,36,3.15,scattered clouds
446,Goure,NE,13.9835,10.2704,92.01,11,100,10.89,overcast clouds
447,Okha,RU,53.5739,142.9478,7.48,92,26,9.78,scattered clouds
448,Naron,ES,43.5167,-8.1528,60.03,89,99,3.44,overcast clouds
449,Madang,PG,-5.2246,145.7966,75.27,93,100,5.82,overcast clouds
450,Kumluca,TR,36.3703,30.2869,47.21,68,73,6.98,broken clouds
451,Abalak,RU,58.1286,68.5944,20.1,96,100,6.6,overcast clouds
452,Ndioum,SN,16.5129,-14.6471,105.69,8,3,10.29,clear sky
453,Roald,NO,62.5833,6.1333,44.33,87,75,6.91,broken clouds
454,Farrukhnagar,IN,17.0778,78.2011,80.31,40,57,5.19,broken clouds
455,Salvador,SV,13.8333,-88.9167,86.05,32,32,3.36,scattered clouds
456,Charters Towers,AU,-20.1,146.2667,67.39,88,12,6.78,few clouds
457,Ostrovnoy,RU,68.0531,39.5131,30.79,80,97,23.31,overcast clouds
458,Opuwo,NA,-18.0607,13.84,75.99,62,89,7.47,light rain
459,Sri Aman,MY,1.2376,111.4621,75.25,94,100,0.0,overcast clouds
460,Komsomolskiy,UZ,40.4272,71.7189,50.72,76,100,4.61,mist
461,Havre-Saint-Pierre,CA,50.2334,-63.5986,39.56,52,40,23.02,scattered clouds
462,Ascension,US,30.2169,-90.9001,81.05,71,100,26.46,overcast clouds
463,Sechura,PE,-5.5569,-80.8222,83.82,55,90,9.75,overcast clouds
464,Outlook,CA,51.5001,-107.0513,36.36,75,11,8.95,few clouds
465,Ketchikan,US,55.3422,-131.6461,37.76,98,100,5.01,moderate rain
466,General Bravo,MX,25.8,-99.1667,80.47,15,0,19.35,clear sky
467,Maldonado,UY,-34.6667,-54.9167,74.23,74,100,11.68,overcast clouds
468,Harper,LR,4.375,-7.7169,81.91,75,97,9.15,overcast clouds
469,Wanaka,NZ,-44.7,169.15,53.11,89,19,1.41,few clouds
470,Hongjiang,CN,27.11,109.9956,44.51,96,75,3.8,moderate rain
471,Bukachacha,RU,52.9833,116.9167,4.59,95,93,3.87,overcast clouds
472,Vostok,RU,46.4856,135.8833,17.33,97,100,4.72,overcast clouds
473,Kunya,NG,12.2233,8.5325,98.76,10,100,2.3,overcast clouds
474,Bardiyah,LY,31.7561,25.0865,51.84,57,33,23.78,scattered clouds
475,Velyka Pysarivka,UA,50.4259,35.485,32.31,92,82,2.24,broken clouds
476,Xuchang,CN,34.0167,113.8167,39.31,89,48,7.18,scattered clouds
477,Marquette,US,46.5333,-87.6335,36.34,58,100,10.71,light snow
478,Yulara,AU,-25.2406,130.9889,85.84,23,77,10.36,broken clouds
479,Kristiinankaupunki,FI,62.2743,21.376,30.42,90,23,7.92,few clouds
480,Belmonte,BR,-15.8631,-38.8828,79.25,84,54,9.31,broken clouds
481,Vernon,CA,50.2581,-119.2691,47.3,86,100,5.75,overcast clouds
482,Morbach,DE,49.8167,7.1167,54.1,37,0,5.75,clear sky
483,Murgab,TM,37.4966,61.9714,48.07,53,75,6.91,broken clouds
484,Talas,TR,38.6908,35.5538,29.07,69,40,1.14,scattered clouds
485,Konce,MK,41.4958,22.385,42.06,55,4,10.25,clear sky
486,Roma,US,43.2128,-75.4557,45.52,32,4,11.01,clear sky
487,Medicine Hat,CA,50.0501,-110.6683,48.22,46,20,9.22,few clouds
488,Shiyan,CN,32.6475,110.7781,40.73,92,100,3.18,overcast clouds
489,Shubarshi,KZ,48.5872,57.1869,9.19,98,13,5.84,few clouds
490,Ermelo,ZA,-26.5333,29.9833,57.04,75,95,4.79,overcast clouds
491,Sur,OM,22.5667,59.5289,78.51,47,1,7.58,clear sky
492,Santa Maria,BR,-29.6842,-53.8069,85.3,48,0,9.22,light rain
493,Almaznyy,RU,48.0448,40.045,33.66,60,0,7.05,clear sky
494,Necochea,AR,-38.5473,-58.7368,77.58,38,6,7.36,clear sky
495,Daru,PG,-9.0763,143.2092,77.79,89,100,2.21,overcast clouds
496,Bugene,TZ,-1.5911,31.1403,57.63,95,75,3.74,broken clouds
497,Shimoda,JP,34.6667,138.95,37.11,77,97,18.5,overcast clouds
498,Bonfim,BR,3.0833,-59.95,92.23,41,94,5.06,overcast clouds
499,Namikupa,TZ,-10.8333,39.6,71.67,98,92,1.79,overcast clouds
500,Mount Isa,AU,-20.7333,139.5,69.57,49,35,0.0,light rain
501,Ayorou,NE,14.7308,0.9174,95.18,9,16,8.63,few clouds
502,Marrakesh,MA,31.6315,-8.0083,69.87,46,40,2.3,scattered clouds
503,Ahipara,NZ,-35.1667,173.1667,63.63,90,17,2.84,few clouds
504,Sorkjosen,NO,69.8,20.9333,42.8,65,75,9.22,light intensity shower rain
505,Dorado,PR,18.4588,-66.2677,83.52,75,75,14.97,broken clouds
506,Adilabad,IN,19.6667,78.5333,89.04,14,11,2.04,few clouds
507,Sao Joao Da Barra,BR,-21.6403,-41.0511,77.09,64,83,13.71,broken clouds
508,Sampit,ID,-2.5333,112.95,73.42,88,100,1.07,light rain
509,Polson,US,47.6936,-114.1632,47.71,55,80,3.4,broken clouds
510,Palmer,US,42.1584,-72.3287,52.07,21,21,5.99,few clouds
511,Tarata,BO,-17.6167,-66.0167,78.22,38,48,2.98,scattered clouds
512,Lensk,RU,60.7253,114.9278,19.29,93,100,6.73,overcast clouds
513,Kozan,TR,37.4552,35.8157,44.42,74,95,5.41,overcast clouds
514,Hualmay,PE,-11.0964,-77.6139,75.67,72,7,11.32,clear sky
515,Vangaindrano,MG,-23.35,47.6,73.58,78,97,1.34,overcast clouds
516,Monroe,US,43.1501,-77.6831,48.45,36,77,1.99,broken clouds
517,Dakar,SN,14.6937,-17.4441,77.88,73,0,13.8,clear sky
518,Polunochnoye,RU,60.8697,60.4153,27.05,78,73,10.98,broken clouds
519,Mehriz,IR,31.5917,54.4318,72.1,22,38,5.28,scattered clouds
520,Makakilo City,US,21.3469,-158.0858,73.29,80,20,3.44,few clouds
521,Nakamura,JP,32.9833,132.9333,47.82,83,100,2.75,overcast clouds
522,Heihe,CN,50.2441,127.4902,18.18,93,72,1.81,broken clouds
523,Arys,KZ,42.4252,68.795,41.38,82,100,6.53,overcast clouds
524,Dillon,US,34.4166,-79.3712,76.03,40,100,7.58,overcast clouds
525,Severnoye,RU,56.3491,78.3619,19.56,96,92,8.12,light snow
526,Donskoye,RU,45.4552,41.9741,35.73,46,0,13.42,clear sky
527,Howard Springs,AU,-12.497,131.047,78.71,91,90,4.12,overcast clouds
528,Teknaf,BD,20.8624,92.3058,76.03,83,93,2.35,overcast clouds
529,Kamenka,RU,51.3223,42.7678,27.41,98,86,10.38,overcast clouds
530,Kenitra,MA,34.261,-6.5802,61.56,76,100,8.1,overcast clouds
531,Ormara,PK,25.2088,64.6357,76.32,75,0,18.59,clear sky
532,Alofi,NU,-19.0595,-169.9187,76.89,88,100,3.44,overcast clouds
533,Olenino,RU,56.2092,33.4889,31.06,92,0,5.06,clear sky
534,Ganzhou,CN,28.8184,115.4327,46.56,91,100,4.7,overcast clouds
535,Betioky,MG,-23.7167,44.3833,75.27,58,0,5.59,clear sky
536,Mizdah,LY,31.4451,12.9801,52.83,44,73,13.06,broken clouds
537,Kendari,ID,-3.945,122.4989,75.36,92,74,3.11,heavy intensity rain
538,Redmond,US,47.674,-122.1215,55.35,89,100,4.0,overcast clouds
539,Balkhash,KZ,46.844,74.9804,32.02,75,100,12.46,overcast clouds
540,Kropotkin,RU,45.4375,40.5756,37.89,44,0,16.8,clear sky
541,Zakupy,CZ,50.6848,14.6452,52.02,53,0,4.5,clear sky
542,Atikokan,CA,48.7555,-91.6216,31.98,97,100,8.81,snow
543,Batagay,RU,67.6333,134.6333,-3.28,99,100,2.37,overcast clouds
544,Nefteyugansk,RU,61.0998,72.6035,8.17,99,99,3.29,overcast clouds
545,Half Moon Bay,US,37.4636,-122.4286,76.59,47,0,6.91,haze
546,Bolshoy Lug,RU,52.0779,104.0919,17.78,98,86,3.91,overcast clouds
547,Myatlevo,RU,54.8969,35.6762,30.65,98,5,4.74,clear sky
548,Byron Bay,AU,-28.65,153.6167,63.95,87,1,5.17,clear sky
549,Carlyle,US,38.6103,-89.3726,54.37,91,100,11.99,moderate rain
550,El Dorado,US,38.7666,-120.5177,72.19,38,20,1.01,few clouds
551,Barra Do Garcas,BR,-15.89,-52.2567,91.98,52,40,6.91,scattered clouds
552,Auki,SB,-8.7676,160.7034,77.43,87,78,2.93,broken clouds
553,Norfolk,US,42.1668,-71.2495,52.11,24,31,11.01,scattered clouds
554,Caohe,CN,30.2297,115.4335,46.0,90,100,0.34,overcast clouds
555,Americus,US,32.0724,-84.2327,77.13,41,0,11.5,clear sky
556,Saint-Joseph,RE,-21.3667,55.6167,79.18,88,72,10.92,broken clouds
557,Fougamou,GA,-1.2154,10.5838,80.26,79,95,0.45,overcast clouds
558,Pangnirtung,CA,66.1451,-65.7125,-7.6,71,20,9.22,few clouds
559,Yerbogachen,RU,61.2767,108.0108,17.8,96,100,5.59,overcast clouds
560,Chapais,CA,49.7834,-74.8492,19.18,73,100,14.09,overcast clouds
561,Rio Grande,BR,-32.035,-52.0986,80.71,69,99,17.31,light rain
562,Antalaha,MG,-14.9003,50.2788,76.33,90,98,7.31,overcast clouds
563,Santa Cruz,BO,-17.8,-63.1667,89.65,51,75,19.57,broken clouds
564,Tadine,NC,-21.55,167.8833,76.05,77,100,9.15,overcast clouds
565,Verkh-Usugli,RU,52.7,115.1667,7.61,94,93,2.91,overcast clouds
566,Megion,RU,61.0296,76.1136,15.82,100,89,3.27,overcast clouds
567,Valparaiso,CL,-33.0393,-71.6273,71.83,59,0,12.66,clear sky
568,Bulungu,CD,-4.55,18.6,67.77,93,100,2.68,overcast clouds
569,La Ronge,CA,55.1001,-105.2842,30.45,59,0,13.8,clear sky
570,Merauke,ID,-8.4667,140.3333,78.96,87,100,4.18,overcast clouds
571,Katakwi,UG,1.8911,33.9661,76.28,56,83,5.48,broken clouds
572,Mtinko,TZ,-4.55,34.85,63.37,73,34,8.37,scattered clouds
573,Kalmunai,LK,7.4167,81.8167,80.02,84,42,3.62,scattered clouds
574,Nanakuli,US,21.3906,-158.1547,74.71,78,20,3.44,few clouds
575,Beira,MZ,-19.8436,34.8389,80.69,74,40,8.05,scattered clouds
576,Barcelos,PT,41.5388,-8.6151,54.91,94,100,3.51,overcast clouds
577,Neiafu,TO,-18.65,-173.9833,81.28,89,20,9.22,few clouds
578,Aksu,CN,41.1231,80.2644,47.8,60,100,5.61,overcast clouds
579,Krasnoarmeysk,RU,51.0239,45.6969,24.37,86,44,12.39,scattered clouds
580,Shelburne,CA,44.0787,-80.2041,41.23,31,98,8.97,overcast clouds
581,Plouzane,FR,48.3833,-4.6167,59.32,54,0,17.27,clear sky
582,Uberlandia,BR,-18.9186,-48.2772,79.81,53,75,12.66,broken clouds
583,Sept-Iles,CA,50.2001,-66.3821,38.05,63,100,25.32,overcast clouds
584,Matagami,CA,49.7502,-77.6328,17.71,62,0,11.5,clear sky
585,Hun,LY,29.1268,15.9477,55.18,41,6,12.62,clear sky
586,Jales,BR,-20.2689,-50.5458,83.16,53,1,8.25,clear sky
587,Marsh Harbour,BS,26.5412,-77.0636,74.32,61,1,17.49,clear sky
588,Qui Nhon,VN,13.7667,109.2333,77.04,88,13,4.34,few clouds
589,Lingao,CN,19.9103,109.6859,75.2,86,47,2.44,scattered clouds
590,Maloy,NO,61.9353,5.1136,42.73,73,11,13.31,few clouds
591,Lluta,PE,-16.0147,-72.0142,56.1,74,71,9.84,broken clouds
592,Boma,GH,7.0805,-2.1697,76.51,86,84,1.39,light rain
593,Hami,CN,42.8,93.45,44.19,44,48,2.01,scattered clouds
594,Molodizhne,UA,48.1773,32.6601,40.35,63,0,7.7,clear sky
595,Ilebo,CD,-4.3167,20.5833,68.45,99,100,1.97,overcast clouds
596,Hovd,MN,48.0056,91.6419,26.62,41,66,7.23,broken clouds
597,Uitenhage,ZA,-33.7576,25.3971,70.63,94,0,4.29,clear sky
598,Alepe,CI,5.5004,-3.6631,84.07,76,96,7.94,overcast clouds
599,Riyadh,SA,24.6877,46.7219,84.34,11,0,7.99,clear sky
600,Grajau,BR,-5.8194,-46.1386,83.39,78,83,2.71,broken clouds
601,Fareham,GB,50.8516,-1.1793,62.15,57,0,4.61,clear sky
602,Tougue,GN,11.4667,-11.6,92.68,24,66,5.14,broken clouds
603,Barra Patuca,HN,15.8,-84.2833,84.76,57,66,13.91,broken clouds
604,Constancia,MX,24.2231,-107.1869,80.62,20,0,8.88,clear sky
605,Alice,US,27.7523,-98.0697,78.53,27,0,20.92,clear sky
606,Kysyl-Syr,RU,63.8986,122.7617,-0.15,100,97,1.52,overcast clouds
607,Tonantins,BR,-2.8731,-67.8022,86.29,62,98,2.55,overcast clouds
608,Sochi,RU,43.6,39.7303,44.69,76,26,4.16,scattered clouds
609,Hofn,IS,64.2539,-15.2082,45.46,100,100,11.81,moderate rain
610,Cedral,MX,23.8,-100.7333,75.15,6,41,16.53,scattered clouds
611,Batagay-Alyta,RU,67.8006,130.4114,-8.75,76,100,5.12,overcast clouds
612,Talaya,RU,61.3833,152.75,9.36,97,100,0.25,light snow
613,Olafsvik,IS,64.8945,-23.7142,36.86,91,100,18.86,overcast clouds
614,Uvinza,TZ,-5.1036,30.3911,65.7,96,63,3.47,light rain
615,Juneau,US,58.3019,-134.4197,39.22,97,100,8.75,snow
616,Juxtlahuaca,MX,17.4294,-99.1467,89.91,21,25,5.97,scattered clouds
617,Kabinda,CD,-6.1333,24.4833,65.44,95,100,3.67,overcast clouds
618,Gladstone,AU,-23.85,151.25,69.73,83,17,5.75,few clouds
619,Daltenganj,IN,24.0333,84.0667,78.71,14,62,4.76,broken clouds
620,Nueva Helvecia,UY,-34.3,-57.2333,75.6,72,94,12.33,overcast clouds
621,Obidos,BR,-1.9175,-55.5181,84.16,72,93,1.81,overcast clouds
622,Temir,KZ,49.1414,57.13,8.44,99,28,6.64,scattered clouds
623,Grindavik,IS,63.8424,-22.4338,45.07,93,100,10.36,overcast clouds
624,Tougan,BF,13.0667,-3.0667,99.7,9,11,7.16,few clouds
625,La Paz,BO,-16.5,-68.15,56.95,55,54,2.98,broken clouds
626,Nkhata Bay,MW,-11.6066,34.2907,73.11,85,93,5.08,overcast clouds
627,Bull Savanna,JM,17.8868,-77.5902,80.29,64,63,18.32,broken clouds
628,Tabou,CI,4.423,-7.3528,81.84,76,96,8.68,overcast clouds
629,Alingsas,SE,57.9303,12.5335,41.47,79,38,4.29,scattered clouds
630,Nobres,BR,-14.7203,-56.3275,90.19,53,55,5.73,broken clouds
631,Alyangula,AU,-13.8483,136.4192,82.89,76,99,9.8,overcast clouds
632,Fontainebleau,FR,48.4044,2.6903,63.86,63,2,6.06,clear sky
633,Linares,CL,-35.85,-71.6,79.68,20,1,5.35,clear sky
634,Saraiu,RO,44.7167,28.15,40.05,64,56,14.58,broken clouds
635,Jambi,ID,-1.6,103.6167,75.83,92,72,1.72,broken clouds
636,Caiaponia,BR,-16.9567,-51.8103,80.44,65,32,8.08,scattered clouds
637,Curup,ID,-3.4667,102.5333,66.52,92,75,1.81,broken clouds
638,Tonota,BW,-21.4833,27.4833,69.39,48,0,9.84,clear sky
639,Maua,BR,-23.6678,-46.4614,74.35,69,56,9.19,broken clouds
640,Kuching,MY,1.55,110.3333,77.22,94,20,0.0,few clouds
641,Oranjemund,NA,-28.55,16.4333,64.35,92,74,9.01,broken clouds
642,Morrope,PE,-6.5417,-80.0111,81.75,55,86,16.44,overcast clouds
643,Nelson Bay,AU,-32.7167,152.15,68.09,89,93,7.99,overcast clouds
644,Porbandar,IN,21.6422,69.6093,77.9,54,5,16.2,clear sky
645,Lokoja,NG,7.8024,6.743,96.21,25,92,5.28,overcast clouds
646,Sulphur Springs,US,33.1385,-95.6011,54.55,76,100,13.8,overcast clouds
647,Yar-Sale,RU,66.8333,70.8333,15.6,94,100,13.82,overcast clouds
648,Salinopolis,BR,-0.6136,-47.3561,80.46,84,98,3.0,overcast clouds
649,Namatanai,PG,-3.6667,152.4333,78.66,82,100,4.83,light rain
650,Abbeville,FR,50.1,1.8333,60.76,58,1,6.64,clear sky
651,Paita,PE,-5.0892,-81.1144,79.61,65,96,12.66,overcast clouds
652,Saint Anthony,US,45.0205,-93.218,40.93,92,100,8.05,mist
653,Liverpool,GB,53.4106,-2.9779,62.38,61,0,10.36,clear sky
654,Paamiut,GL,61.994,-49.6678,23.04,68,100,6.67,overcast clouds
655,Mlonggo,ID,-6.5333,110.7,80.35,83,100,4.68,overcast clouds
656,Sokur,RU,55.2093,83.319,17.96,94,100,11.18,overcast clouds
657,Taoudenni,ML,22.6783,-3.9836,87.17,9,0,11.59,clear sky
658,Lithakia,GR,37.7167,20.8333,47.57,49,4,14.88,clear sky
659,Nerchinskiy Zavod,RU,51.3088,119.61,-0.42,99,96,1.52,overcast clouds
660,Beni Mazar,EG,28.4962,30.8029,56.97,36,21,11.05,few clouds
661,Qasigiannguit,GL,68.8193,-51.1922,7.05,93,100,4.9,light snow
662,Callaguip,PH,18.0714,120.4867,80.04,81,54,9.95,broken clouds
663,Thai Binh,VN,20.45,106.3333,74.16,96,70,4.18,moderate rain
664,Dingle,PH,10.9995,122.6711,77.2,89,71,5.84,broken clouds
665,Ugra,RU,54.7777,34.3267,31.64,96,1,4.0,clear sky
666,Tottori,JP,35.5,134.2333,38.25,80,95,3.51,overcast clouds
667,Cercal,PT,37.806,-8.6715,57.74,73,32,9.78,scattered clouds
668,Oum Hadjer,TD,13.2954,19.6966,93.2,8,95,7.65,overcast clouds
669,Matane,CA,48.8286,-67.522,32.04,87,100,14.97,light snow
670,Bilibino,RU,68.0546,166.4372,14.36,93,100,3.06,overcast clouds
671,Mapiripan,CO,2.8892,-72.1256,85.44,66,62,5.21,broken clouds
672,Redlands,US,34.0556,-117.1825,82.2,23,7,10.0,clear sky
673,Yerkoy,TR,39.6381,34.4672,31.42,81,77,5.66,broken clouds
674,Kamogawa,JP,35.1,140.1,38.14,78,45,15.82,scattered clouds
675,Placido De Castro,BR,-10.3353,-67.1856,84.56,80,87,2.17,overcast clouds
676,Teguise,ES,29.0605,-13.564,64.62,56,40,13.8,scattered clouds
677,Juegang,CN,32.3174,121.1855,46.9,89,100,7.29,overcast clouds
678,Lodwar,KE,3.1191,35.5973,91.9,31,4,15.19,clear sky
679,Beeville,US,28.4008,-97.7483,78.3,23,0,19.57,clear sky
680,Vawkavysk,BY,53.1561,24.4513,47.68,52,0,1.28,clear sky
681,Nabire,ID,-3.3667,135.4833,76.03,93,100,4.52,overcast clouds
682,Albanel,CA,48.8832,-72.4487,30.72,78,91,14.7,overcast clouds
683,Belaya Gora,RU,68.5333,146.4167,-11.7,100,100,3.62,overcast clouds
684,Vzmorye,RU,54.6961,20.2361,44.01,50,0,3.29,clear sky
685,Cairns,AU,-16.9167,145.7667,71.55,88,17,5.75,few clouds
686,Foso,GH,5.7012,-1.2866,83.21,70,100,8.59,overcast clouds
687,Solhan,TR,38.9634,41.0293,26.08,92,97,5.5,light snow
688,Camocim,BR,-2.9022,-40.8411,81.86,84,87,10.4,overcast clouds
689,Boa Vista,BR,2.8197,-60.6733,93.18,40,75,13.8,broken clouds
690,Poum,NC,-20.2333,164.0167,79.56,77,100,14.27,overcast clouds
691,Strezhevoy,RU,60.7333,77.5889,7.02,100,95,2.48,overcast clouds
692,Nhulunbuy,AU,-12.2333,136.7667,79.41,94,100,0.0,overcast clouds
693,Bowen,AU,-20.0167,148.2333,75.52,73,3,7.92,clear sky
694,La Asuncion,VE,11.0333,-63.8628,85.73,54,7,17.27,clear sky
695,Atherton,GB,53.5237,-2.4935,60.94,79,91,7.43,overcast clouds
696,Los Llanos De Aridane,ES,28.6585,-17.9182,64.15,77,40,5.01,scattered clouds
697,Grand Forks,US,47.9417,-97.4337,44.53,61,0,17.27,clear sky
698,Irbeyskoye,RU,55.6428,95.4522,20.35,94,100,3.4,overcast clouds
699,Vryburg,ZA,-26.9566,24.7284,69.46,64,41,6.22,light rain
700,Mont-De-Marsan,FR,44.0,-0.6667,62.78,69,0,9.22,clear sky
701,Whitehorse,CA,60.7161,-135.0538,35.1,87,100,8.99,overcast clouds
702,Zharkent,KZ,44.1628,80.0,40.75,79,100,4.41,overcast clouds
703,Carutapera,BR,-1.195,-46.02,78.08,91,99,3.33,overcast clouds
704,Aktau,KZ,43.65,51.2,28.98,67,60,17.72,broken clouds
705,Jaisalmer,IN,26.9147,70.9181,80.8,19,0,17.69,clear sky
706,Aklavik,CA,68.2191,-135.0107,-8.73,94,97,7.18,overcast clouds
707,Viransehir,TR,37.2353,39.7631,43.9,81,100,6.49,overcast clouds
708,Hamina,FI,60.5697,27.1979,40.28,89,2,7.47,clear sky
709,Shingu,JP,33.7333,135.9833,40.5,80,99,5.99,overcast clouds
710,Butembo,CD,0.15,29.2833,57.54,97,100,1.39,overcast clouds
711,Pacific Grove,US,36.6177,-121.9166,75.58,64,19,1.99,few clouds
712,Marsa Matruh,EG,31.3525,27.2453,53.08,56,24,20.47,few clouds
713,Visnes,NO,59.3556,5.2242,43.83,75,20,5.75,few clouds
714,Evans,US,33.5337,-82.1307,76.23,49,75,13.8,broken clouds
715,Talnakh,RU,69.4865,88.3972,-0.49,91,100,8.19,overcast clouds
